[
{
"name": "Addi Road Community Organisation",
"category": "Community / Social Care",
"level": 2,
"city": "Sydney",
"country": "Australia",
"lat": -33.8688,
"lng": 151.2093
},
{
"name": "Emergency",
"category": "Health / Care",
"level": 2,
"city": "Milan",
"country": "Italy",
"lat": 45.4642,
"lng": 9.1900
},
{
"name": "Médecins Sans Frontières",
"category": "Health / Care",
"level": 2,
"city": "Geneva",
"country": "Switzerland",
"lat": 46.2044,
"lng": 6.1432
},
{
"name": "Save the Soil – Conscious Planet",
"category": "Environment / Planet Care",
"level": 2,
"city": "Coimbatore",
"country": "India",
"lat": 11.0168,
"lng": 76.9558
},
{
"name": "Water.org",
"category": "Environment / Planet Care",
"level": 1,
"city": "Kansas City",
"country": "USA",
"lat": 39.0997,
"lng": -94.5786
},
{
"name": "BRAC",
"category": "Community / Social Care",
"level": 2,
"city": "Dhaka",
"country": "Bangladesh",
"lat": 23.8103,
"lng": 90.4125
},
{
"name": "International Rescue Committee",
"category": "Emergency / Crisis Response",
"level": 2,
"city": "New York",
"country": "USA",
"lat": 40.7128,
"lng": -74.0060
},
{
"name": "UNICEF",
"category": "Human Rights / Care",
"level": 2,
"city": "New York",
"country": "USA",
"lat": 40.7128,
"lng": -74.0060
},
{
"name": "Save the Children",
"category": "Human Rights / Care",
"level": 2,
"city": "London",
"country": "United Kingdom",
"lat": 51.5074,
"lng": -0.1278
},
{
"name": "Doctors of the World",
"category": "Health / Care",
"level": 2,
"city": "Paris",
"country": "France",
"lat": 48.8566,
"lng": 2.3522
},
{
"name": "African Wildlife Foundation",
"category": "Environment / Planet Care",
"level": 1,
"city": "Nairobi",
"country": "Kenya",
"lat": -1.2921,
"lng": 36.8219
},
{
"name": "Rainforest Alliance",
"category": "Environment / Planet Care",
"level": 1,
"city": "New York",
"country": "USA",
"lat": 40.7128,
"lng": -74.0060
},
{
"name": "CARE International",
"category": "Community / Social Care",
"level": 2,
"city": "Geneva",
"country": "Switzerland",
"lat": 46.2044,
"lng": 6.1432
},
{
"name": "Norwegian Refugee Council",
"category": "Emergency / Crisis Response",
"level": 2,
"city": "Oslo",
"country": "Norway",
"lat": 59.9139,
"lng": 10.7522
},
{
"name": "International Committee of the Red Cross",
"category": "Emergency / Crisis Response",
"level": 2,
"city": "Geneva",
"country": "Switzerland",
"lat": 46.2044,
"lng": 6.1432
},
{
"name": "Human Rights Watch",
"category": "Human Rights / Legal Support",
"level": 1,
"city": "New York",
"country": "USA",
"lat": 40.7128,
"lng": -74.0060
},
{
"name": "Amnesty International",
"category": "Human Rights / Legal Support",
"level": 2,
"city": "London",
"country": "United Kingdom",
"lat": 51.5074,
"lng": -0.1278
},
{
"name": "Action Against Hunger",
"category": "Emergency / Crisis Response",
"level": 2,
"city": "Madrid",
"country": "Spain",
"lat": 40.4168,
"lng": -3.7038
},
{
"name": "Oxfam",
"category": "Community / Social Care",
"level": 2,
"city": "Oxford",
"country": "United Kingdom",
"lat": 51.7520,
"lng": -1.2577
},
{
"name": "Islamic Relief Worldwide",
"category": "Emergency / Crisis Response",
"level": 2,
"city": "Birmingham",
"country": "United Kingdom",
"lat": 52.4862,
"lng": -1.8904
},
{
"name": "World Food Programme",
"category": "Emergency / Crisis Response",
"level": 2,
"city": "Rome",
"country": "Italy",
"lat": 41.9028,
"lng": 12.4964
}
]
